[{"address":"20 Cardinal Hayes Place, New York, NY","location":"St Andrews Church","title":"A DESIGN FOR LIVING","timings":"7:00 AM to 8:00 AM","day":"Tuesdays","startTime":700,"type":"B = Beginners meeting"},{"address":"20 Cardinal Hayes Place, New York, NY","location":"St. Andrew's Church","title":"CHAMBERS STREET","timings":"12:15 PM to 1:15 PM","day":"Fridays","startTime":1215,"type":"BB = Big Book meeting"},{"address":"29 Mott Street, New York, NY","location":"Church of the Transfiguration","title":"CHINATOWN","timings":"6:30 PM to 7:30 PM","day":"Tuesdays","startTime":1830,"type":"C = Closed Discussion meeting"},{"address":"49 Fulton Street, New York, NY","location":"St. Margaret's Residence","title":"DOWNTOWN","timings":"7:00 PM to 8:00 PM","day":"Mondays","startTime":1900,"type":"OD = Open Discussion meeting"},{"address":"44 John Street, New York, NY","location":"","title":"EXCHANGE VIEWS @ JOHN STREET CHURCH","timings":"1:30 PM to 2:30 PM","day":"Thursdays","startTime":1330,"type":"S = Step meeting","interest":"Living Sober"},{"address":"49 Fulton Street, New York, NY","location":"","title":"EXCHANGE VIEWS @ ST. MARGARET'S HOUSE","timings":"5:30 PM to 6:30 PM","day":"Fridays","startTime":1730,"type":"B = Beginners meeting","interest":"Round-Robin Meeting Format"},{"address":"20 Cardinal Hayes Place, New York, NY","location":"St. Andrew's Church","title":"FRIDAY DOWNTOWN","timings":"6:00 PM to 7:00 PM","day":"Fridays","startTime":1800,"type":"OD = Open Discussion meeting"},{"address":"22 Barclay Street, New York, NY","location":"St. Peter's Church","title":"GATEWAY","timings":"6:00 PM to 7:00 PM","day":"Sundays","startTime":1800,"type":"BB = Big Book meeting"},{"address":"20 Cardinal Hayes Place, New York, NY","location":"St. Andrew's Church","title":"PASSING THE BAR","timings":"1:15 PM to 2:15 PM","day":"Fridays","startTime":1315,"type":"BB = Big Book meeting","interest":"Promises"},{"address":"22 Barclay Street , New York, NY","location":"Saint Peter's Church","title":"S.O.B.E.R.","timings":"7:30 PM to 8:45 PM","day":"Thursdays","startTime":1930,"type":"OD = Open Discussion meeting"},{"address":"283 West Broadway, New York, NY","location":"Hazelden Tribeca","title":"SANE AND SOBER","timings":"7:00 PM to 8:00 PM","day":"Wednesdays","startTime":1900,"type":"C = Closed Discussion meeting","interest":"Mental Health Issues in Sobriety"},{"address":"125 Barclay Street, New York, NY","location":"Municipal Union Bldg DC 37","title":"SATURDAY AFTERNOON DISCUSSION","timings":"2:00 PM to 3:15 PM","day":"Saturdays","startTime":1400,"type":"OD = Open Discussion meeting"},{"address":"49 Fulton Street, New York, NY","location":"St. Margaret's House","title":"SEAMEN'S GROUP","timings":"6:00 PM to 7:00 PM","day":"Tuesdays","startTime":1800,"type":"S = Step meeting"},{"address":"49 Fulton Street, New York, NY","location":"St. Margaret's House","title":"SEAPORT","timings":"12:15 PM to 1:15 PM","day":"Tuesdays","startTime":1215,"type":"B = Beginners meeting","interest":"Meditation"},{"address":"20 Cardinal Hayes Place, New York, NY","location":"Church of Saint Andrew","title":"TOWER","timings":"5:30 PM to 6:30 PM","day":"Wednesdays","startTime":1730,"type":"OD = Open Discussion meeting"},{"address":"283 West Broadway, New York, NY","location":"Tribeca 12 Building","title":"TRIANGLE GROUP","timings":"6:30 PM to 7:30 PM","day":"Thursdays","startTime":1830,"type":"C = Closed Discussion meeting","interest":"Meditation"},{"address":"49 Fulton Street, New York, NY","location":"","title":"TRIBECA GROUP @ ST. MARGARET'S HOUSE","timings":"7:30 PM to 8:30 PM","day":"Thursdays","startTime":1930,"type":"B = Beginners meeting"},{"address":"22 Barclay Street, New York, NY","location":"St. Peter's Church","title":"TRIBECA GROUP @ ST. PETER'S CHURCH","timings":"8:00 PM to 9:00 PM","day":"Wednesdays","startTime":2000,"type":"OD = Open Discussion meeting"},{"address":"20 Cardinal Hayes Place, New York, NY","location":"St. Andrew's Church","title":"WOMEN'S DOWNTOWN AA STEP MEETING","timings":"1:15 PM to 2:15 PM","day":"Wednesdays","startTime":1315,"type":"S = Step meeting"},{"address":"283 West Broadway, New York, NY","location":"Hazelden Center","title":"YOUNG PEOPLE'S DIVERSITY","timings":"8:30 PM to 9:30 PM","day":"Wednesdays","startTime":2030,"type":"C = Closed Discussion meeting","interest":"Gay, Lesbian and Bisexual"},{"address":"283 West Broadway, New York, NY","location":"Hazelden Center","title":"YOUNG PEOPLE'S STEP","timings":"7:45 PM to 8:45 PM","day":"Tuesdays","startTime":1945,"type":"C = Closed Discussion meeting","interest":"Young People"},{"address":"283 West Broadway, New York, NY","location":"Hazelden Center","title":"YOUTH ENJOYING SOBRIETY (Y.E.S.)","timings":"7:00 PM to 8:15 PM","day":"Saturdays","startTime":1900,"type":"B = Beginners meeting","interest":"Young People"},{"address":"273 Bowery, New York, NY","location":"University Settlement","title":"A.A. ON THE BOWERY","timings":"6:00 PM to 7:00 PM","day":"Fridays","startTime":1800,"type":"C = Closed Discussion meeting"},{"address":"232 West 11th Street, New York, NY","location":"Manhattan Seventh-Day Adventist Church","title":"AFTER FIVE","timings":"6:15 PM to 7:15 PM","day":"Thursdays","startTime":1815,"type":"S = Step meeting"},{"address":"283 West Broadway, New York, NY","location":"Hazelden Center","title":"AFTERNOON DELIGHT","timings":"12:00 PM to 1:00 PM","day":"Saturdays","startTime":1200,"type":"C = Closed Discussion meeting"},{"address":"232 West 11th Street, New York, NY","location":"Seventh Day Adventist Church","title":"ARTISTS IN RECOVERY (A.R.T.)","timings":"6:30 PM to 7:45 PM","day":"Sundays","startTime":1830,"type":"B = Beginners meeting"},{"address":"220 West Houston Street, New York, NY","location":"","title":"BAGELS AND BIG BOOK","timings":"10:30 AM to 12:00 PM","day":"Sundays","startTime":1030,"type":"OD = Open Discussion meeting"},{"address":"253 Center Street, New York, NY","location":"Golden Bridge Yoga Center","title":"CENTER MEETING","timings":"5:15 PM to 6:15 PM","day":"Mondays","startTime":1715,"type":"OD = Open Discussion meeting","interest":"Meditation at Meeting"},{"address":"273 Bowery, New York, NY","location":"University Settlement (The Chinatown YMCA)","title":"EAST VILLAGE SOBER AGNOSTICS","timings":"6:45 PM to 8:00 PM","day":"Fridays","startTime":1845,"type":"OD = Open Discussion meeting","interest":"Agnostic"},{"address":"487 Hudson Street, New York, NY","location":"St. Luke's Episcopal School","title":"GREENWICH VILLAGE","timings":"8:30 PM to 9:30 PM","day":"Mondays","startTime":2030,"type":"S = Step meeting","interest":"Steps 1-2-3"},{"address":"292 Henry Street, New York, NY","location":"St. Augustine's Church","title":"GRUPO CENTRAL","timings":"8:00 PM to 9:00 PM","day":"Fridays","startTime":2000,"type":"O = Open meeting"},{"address":"232 West 11th Street, New York, NY","location":"Manhattan Church of The Seventh-day Adventist","title":"HAPPY, JOYOUS AND FREE","timings":"7:00 PM to 8:00 PM","day":"Mondays","startTime":1900,"type":"C = Closed Discussion meeting","interest":"Gay Men"},{"address":"141 Henry Street, New York, NY","location":"Church of Saint Theresa Rectory","title":"LOWER EAST SIDE","timings":"7:00 PM to 8:00 PM","day":"Tuesdays","startTime":1900,"type":"C = Closed Discussion meeting"},{"address":"220 West Houston Street, New York, NY","location":"","title":"MIDNITE","timings":"10:00 PM to 11:15 PM","day":"Thursdays","startTime":2200,"type":"C = Closed Discussion meeting","interest":"Topic"},{"address":"83 Christopher Street , New York, NY","location":"St. John's Lutheran Church","title":"NEW GROUP","timings":"7:30 PM to 8:30 PM","day":"Fridays","startTime":1930,"type":"B = Beginners meeting","interest":"Gay, Lesbian and Bisexual"},{"address":"50 Perry Street, New York, NY","location":"","title":"PERRY STREET WORKSHOP","timings":"11:00 PM to 12:00 AM","day":"Fridays","startTime":2300,"type":"C = Closed Discussion meeting","interest":"Children Welcome"},{"address":"232 West 11th Street, New York, NY","location":"Seventh Day Adventist Church","title":"PRIMETIME NYC","timings":"6:30 PM to 7:45 PM","day":"Tuesdays","startTime":1830,"type":"S = Step meeting"},{"address":"224 Waverly Place, New York, NY","location":"St. John's Episcopal Church","title":"RED DOOR","timings":"8:30 PM to 9:30 PM","day":"Fridays","startTime":2030,"type":"OD = Open Discussion meeting","interest":"Gay, Lesbian and Bisexual"},{"address":"154 Sullivan Street, New York, NY","location":"St. Anthony's of Padua","title":"ROOM FOR IMPROVEMENT","timings":"7:30 AM to 8:30 AM","day":"Fridays","startTime":730,"type":"S = Step meeting","interest":"Promises"},{"address":"273 Bowery Street, New York, NY","location":"Chinatown YMCA","title":"ROOM FOR IMPROVEMENT","interest":"Topic"},{"address":"371 6th Avenue, New York, NY","location":"St. Joseph's Church","title":"SHERIDAN SQUARE FOLLIES","timings":"6:00 PM to 7:00 PM","day":"Saturdays","startTime":1800,"type":"B = Beginners meeting","interest":"Gay, Lesbian and Bisexual"},{"address":"155 Sullivan Street, New York, NY","location":"St. Anthony of Padua Church","title":"SOHO","timings":"8:30 PM to 9:30 PM","day":"Mondays","startTime":2030,"type":"S = Step meeting","interest":"Interpreted for the Deaf"},{"address":"7 East 10th Strert, New York, NY","location":"The Bronfman Cernter @ NYU","title":"SPIRITUAL WORKSHOP","timings":"11:00 AM to 12:15 PM","day":"Sundays","startTime":1100,"type":"C = Closed Discussion meeting","interest":"Eleventh Step"},{"address":"232 West 11th Street, New York, NY","location":"Seventh Adventist Church","title":"T&A-TOGETHERNESS & ACTION","interest":"Women"},{"address":"81 Christopher Street, New York, NY","location":"St. John's Lutheran Church","title":"TEN PLUS","timings":"8:00 PM to 9:00 PM","day":"Tuesdays","startTime":2000,"type":"C = Closed Discussion meeting"},{"address":"273 Bowery, New York, NY","location":"University Settlement (The Chinatown YMCA)","title":"THE CAPTAIN'S TABLE","timings":"7:00 PM to 8:00 PM","day":"Thursdays","startTime":1900,"type":"BB = Big Book meeting","interest":"Men"},{"address":"232 West 11th Street, New York, NY","location":"Manhattan Seventh-Day Adventist Church","title":"TOGETHER WE CAN","timings":"6:45 PM to 8:00 PM","day":"Tuesdays","startTime":1845,"type":"S = Step meeting"},{"address":"232 West 11th Street, New York, NY","location":"Manhattan Church of The Seventh-day Adventist","title":"WEDNESDAY FOCUS","timings":"6:15 PM to 7:15 PM","day":"Wednesdays","startTime":1815,"type":"C = Closed Discussion meeting"},{"address":"83 Christopher Street, New York, NY","location":"St. John's Lutheran Church","title":"WEST VILLAGE WOMEN","timings":"6:30 PM to 7:45 PM","day":"Thursdays","startTime":1830,"type":"C = Closed Discussion meeting","interest":"Women"},{"address":"220 West Houston Street, New York, NY","location":"","title":"WOMEN INTO ACTION","timings":"4:45 PM to 5:45 PM","day":"Saturdays","startTime":1645,"type":"C = Closed Discussion meeting","interest":"Women"},{"address":"273 Bowery, New York, NY","location":"University Settlement @ Houston Street Center","title":"WOMEN TOGETHER","timings":"6:15 PM to 7:30 PM","day":"Fridays","startTime":1815,"type":"C = Closed Discussion meeting","interest":"Lesbian"}]